[{"id":"7224","name":"Cafe Wink","location":{"address":"G-1, Plot 9, Sikka Galaxy, Shreshtha Vihar, Anand Vihar, New Delhi","locality":"Anand Vihar","city":"New Delhi","city_id":1,"latitude":"28.6572599816","longitude":"77.3172340170","zipcode":"110092","country_id":1,"locality_verbose":"Anand Vihar, New Delhi"},"cuisines":"Cafe, Continental, Italian","image_url":"https://b.zmtcdn.com/data/pictures/4/7224/adcbc9bf75f6c1808867f18dc867bff9.jpg","phone_numbers":"+91 8130370123, +91 8130470123, 011 43596979"},{"id":"307374","name":"AMA Cafe","location":{"address":"House 6, New Colony, Majnu ka Tilla, New Delhi","locality":"Majnu ka Tila","city":"New Delhi","city_id":1,"latitude":"28.7024576604","longitude":"77.2284069657","zipcode":"110054","country_id":1,"locality_verbose":"Majnu ka Tila, New Delhi"},"cuisines":"Cafe, Continental, Desserts","image_url":"https://b.zmtcdn.com/data/res_imagery/307374_RESTAURANT_6688d81a57b8da4bcf20d725de39a3d2.jpg","phone_numbers":"011 61408132, +91 8448994257, +91 8448994259"},{"id":"19320309","name":"Padmanabham","location":{"address":"52, Atul Grove Road, Opposite Metro Gate 2, Janpath, New Delhi","locality":"Janpath","city":"New Delhi","city_id":1,"latitude":"28.6271651377","longitude":"77.2195550054","zipcode":"","country_id":1,"locality_verbose":"Janpath, New Delhi"},"cuisines":"South Indian, North Indian, Beverages","image_url":"https://b.zmtcdn.com/data/pictures/chains/9/19320309/e2e9a7cb2d7a0b3c6e5f0f107cde10f0.jpg","phone_numbers":"+91 8882300300"},{"id":"18198449","name":"Punjabi Angithi","location":{"address":"32-22, A 4, DDA Market, Paschim Vihar, New Delhi","locality":"Paschim Vihar","city":"New Delhi","city_id":1,"latitude":"28.6726861364","longitude":"77.1090091020","zipcode":"","country_id":1,"locality_verbose":"Paschim Vihar, New Delhi"},"cuisines":"North Indian, Chinese, Momos, Rolls","image_url":"https://b.zmtcdn.com/data/pictures/9/18198449/6322f562b4226c5e3c4bdfdab8afeaa1.jpg?output-format=webp","phone_numbers":"00 1140191599, +91 9999613673"},{"id":"19002410","name":"Punjabi Angithi","location":{"address":"Shop 31 & 32, DDA Market, Sector 16, Rohini, New Delhi","locality":"Rohini","city":"New Delhi","city_id":1,"latitude":"28.7350730000","longitude":"77.1198650000","zipcode":"","country_id":1,"locality_verbose":"Rohini, New Delhi"},"cuisines":"North Indian, Chinese, Fast Food","image_url":"https://b.zmtcdn.com/data/pictures/9/18198449/6322f562b4226c5e3c4bdfdab8afeaa1.jpg?output-format=webp","phone_numbers":"+91 9315412343, +91 9315438375"},{"id":"18624988","name":"Coffee Bond","location":{"address":"M 29, M Block Market, Greater Kailash 1 (GK 1), New Delhi","locality":"M Block Market, Greater Kailash 1 (GK1)","city":"New Delhi","city_id":1,"latitude":"28.5494410323","longitude":"77.2360717133","zipcode":"","country_id":1,"locality_verbose":"M Block Market, Greater Kailash 1 (GK1), New Delhi"},"cuisines":"Cafe, Italian, Continental, Healthy Food, Pizza, Coffee","image_url":"https://b.zmtcdn.com/data/reviews_photos/270/103ffb52891776baf11a906b2a9ca270_1575667169.jpg","phone_numbers":"+91 9999535458"},{"id":"18632129","name":"Dhaba 29","location":{"address":"SCO 29, Sector 29, Gurgaon","locality":"Sector 29","city":"Gurgaon","city_id":1,"latitude":"28.4681024000","longitude":"77.0631078000","zipcode":"","country_id":1,"locality_verbose":"Sector 29, Gurgaon"},"cuisines":"North Indian, Kebab, Beverages","image_url":"https://b.zmtcdn.com/data/pictures/9/18632129/0ba59356c5d37b240c8b5cd0a26ee1fa.jpg","phone_numbers":"0124 4211181, +91 9560322544, 0124 4211182"},{"id":"18649486","name":"The Drunken Botanist","location":{"address":"Unit 1B & 1C, Upper Ground Floor-C, Building 10C, Cyber Hub, DLF Cyber City, Gurgaon","locality":"Cyber Hub, DLF Cyber City","city":"Gurgaon","city_id":1,"latitude":"28.4940689526","longitude":"77.0886759460","zipcode":"","country_id":1,"locality_verbose":"Cyber Hub, DLF Cyber City, Gurgaon"},"cuisines":"Continental, Italian, North Indian, Chinese","image_url":"https://b.zmtcdn.com/data/pictures/6/18649486/891f5711b0028057cdf834ca1fee9780.jpg","phone_numbers":"+91 8448088520, +91 8448088521, +91 8448088522"},{"id":"18688683","name":"Paparizza - Lust For Crust","location":{"address":"2520, Hudson Lane, Delhi University-GTB Nagar, New Delhi","locality":"Delhi University-GTB Nagar","city":"New Delhi","city_id":1,"latitude":"28.6951501238","longitude":"77.2042305395","zipcode":"","country_id":1,"locality_verbose":"Delhi University-GTB Nagar, New Delhi"},"cuisines":"Italian, Pizza, Desserts, Beverages","image_url":"https://b.zmtcdn.com/data/reviews_photos/cda/ca9866e63f47bd3e42439be2808e2cda_1567516328.jpeg","phone_numbers":"+91 8178585024"},{"id":"309848","name":"Singla's","location":{"address":"232, Near Dwarka Sector 9 Metro Station, Sector 9, Dwarka","locality":"Sector 9, Dwarka","city":"New Delhi","city_id":1,"latitude":"28.5742121508","longitude":"77.0671461895","zipcode":"75","country_id":1,"locality_verbose":"Sector 9, Dwarka, New Delhi"},"cuisines":"North Indian, South Indian, Chinese, Fast Food, Mithai","image_url":"https://b.zmtcdn.com/data/pictures/chains/8/309848/40905d892bdc3b9edb9ae46dd2bc7761.jpg?output-format=webp","phone_numbers":"+91 8130613614, +91 9599889913"},{"id":"18562836","name":"Diggin","location":{"address":"10, Santushti Shopping Complex, Race Course Road, Chanakyapuri, New Delhi","locality":"Chanakyapuri","city":"New Delhi","city_id":1,"latitude":"28.5951426153","longitude":"77.1979655698","zipcode":"","country_id":1,"locality_verbose":"Chanakyapuri, New Delhi"},"cuisines":"Cafe, Italian, Beverages","image_url":"https://b.zmtcdn.com/data/pictures/6/18562836/f5cf30a33f5a788c28ebf88ceedaf178.jpg","phone_numbers":"011 26110787, 011 26110788"},{"id":"18440073","name":"Hippie Bus","location":{"address":"Terrace, Sikka Galaxy Complex, Sreshtha Vihar Market, Anand Vihar, New Delhi","locality":"Anand Vihar","city":"New Delhi","city_id":1,"latitude":"28.6573164692","longitude":"77.3173007369","zipcode":"","country_id":1,"locality_verbose":"Anand Vihar, New Delhi"},"cuisines":"Fast Food, Italian, Mexican, Chinese, North Indian","image_url":"https://b.zmtcdn.com/data/pictures/3/18440073/eed49c5774b56893bf56f38d76619cb7.jpg?output-format=webp","phone_numbers":"+91 9211000233"},{"id":"1621","name":"The Clay Oven","location":{"address":"D-1, Hotel Park Residency, Green Park, New Delhi","locality":"Green Park","city":"New Delhi","city_id":1,"latitude":"28.5574239645","longitude":"77.2048668936","zipcode":"110016","country_id":1,"locality_verbose":"Green Park, New Delhi"},"cuisines":"North Indian, Mughlai, Chinese","image_url":"https://b.zmtcdn.com/data/pictures/chains/1/1621/08753b2d24639d7fcf54b7e868baf650.jpeg","phone_numbers":"011 40670010, 011 40670011"},{"id":"18237941","name":"PIND BALLUCHI","location":{"address":"112/112 A, 1st Floor, ILD Trade Centre, Near Subhash Chowk, Sohna Road, Gurgaon","locality":" ILD Trade Centre Mall, Sohna Road","city":"Gurgaon","city_id":1,"latitude":"28.4249699980","longitude":"77.0391315222","zipcode":"","country_id":1,"locality_verbose":" ILD Trade Centre Mall, Sohna Road, Gurgaon"},"cuisines":"North Indian, Mughlai, Kebab","image_url":"https://b.zmtcdn.com/data/res_imagery/836_CHAIN_0243eb5382383df0c70079fd189d13aa.jpg","phone_numbers":"+91 9015558833, 0124 4270600"},{"id":"18233593","name":"Farzi Cafe","location":{"address":"38/39, Level 1, Block E , Inner Circle, Connaught Place, New Delhi","locality":"Connaught Place","city":"New Delhi","city_id":1,"latitude":"28.6324804801","longitude":"77.2211901471","zipcode":"","country_id":1,"locality_verbose":"Connaught Place, New Delhi"},"cuisines":"Modern Indian","image_url":"https://b.zmtcdn.com/data/res_imagery/18233593_RESTAURANT_00272acd0235af309a0bbe4843e53499.jpg","phone_numbers":"+91 9599889700, +91 9599889701, 011 43551028"},{"id":"18715759","name":"The Burger Club","location":{"address":"E-56, Ground Floor, Opposite Metro Pillar 44, Main Vikas Marg, Laxmi Nagar, New Delhi","locality":"Laxmi Nagar","city":"New Delhi","city_id":1,"latitude":"28.6333700717","longitude":"77.2817245871","zipcode":"","country_id":1,"locality_verbose":"Laxmi Nagar, New Delhi"},"cuisines":"Burger, Fast Food, Beverages","image_url":"https://b.zmtcdn.com/data/pictures/6/18724516/3329656906df0fb9fe55d88f8b35ce6e.jpg","phone_numbers":"011 40452440, +91 8800807807"},{"id":"5059","name":"Om Sweets & Snacks","location":{"address":"GL-23, Hari Nagar, Jail Road, New Delhi","locality":"Jail Road","city":"New Delhi","city_id":1,"latitude":"28.6278760000","longitude":"77.1003190000","zipcode":"0","country_id":1,"locality_verbose":"Jail Road, New Delhi"},"cuisines":"Mithai, North Indian, South Indian, Street Food, Chinese","image_url":"https://b.zmtcdn.com/data/pictures/6/5056/b0a348b779e34e9e89fea7050b1c29d2.jpg","phone_numbers":"011 45782222, 011 45782223, 011 45782224"},{"id":"18617136","name":"C.I.A. Call It Asiian","location":{"address":"13/14/15/16, Narmada Shopping Complex, Near Don Bosco School, Alaknanda Road, Greater Kailash 2 (GK 2), New Delhi","locality":"Greater Kailash 2 (GK2)","city":"New Delhi","city_id":1,"latitude":"28.5277497398","longitude":"77.2467817739","zipcode":"110019","country_id":1,"locality_verbose":"Greater Kailash 2 (GK2), New Delhi"},"cuisines":"Thai, Chinese, Sushi, Momos","image_url":"https://b.zmtcdn.com/data/pictures/6/18617136/6d81214e6ca48a062a71c7583245487e.jpg","phone_numbers":"011 41612211, +91 9700777222"},{"id":"18819947","name":"Master Koii's","location":{"address":"Shop 19, Flavor Town, Bestech Chambers, Sushant Lok, Gurgaon","locality":"Sushant Lok","city":"Gurgaon","city_id":1,"latitude":"28.4613383181","longitude":"77.0780020952","zipcode":"122002","country_id":1,"locality_verbose":"Sushant Lok, Gurgaon"},"cuisines":"Asian, Chinese, Thai, Malaysian, Korean","image_url":"https://b.zmtcdn.com/data/pictures/7/18819947/a95acf723c1e6a1a0ae3cb2fdf80927f.jpg","phone_numbers":"+91 9810543049"},{"id":"312810","name":"Dilli Darbar","location":{"address":"C-448, Main 100 Feet Road, Chajjupur, Durgapuri, Near Shahdara, New Delhi","locality":"Shahdara","city":"New Delhi","city_id":1,"latitude":"28.6896050194","longitude":"77.2866373882","zipcode":"","country_id":1,"locality_verbose":"Shahdara, New Delhi"},"cuisines":"Mithai, North Indian, Chinese, South Indian, Street Food, Beverages","image_url":"https://b.zmtcdn.com/data/pictures/chains/0/312810/237070c6aeeb80787645fe4927a7c308.jpg","phone_numbers":"+91 9210161500, +91 9210161700"},{"id":"18783363","name":"Wakhra Swaad","location":{"address":"Khasra 514, Hajipur Yakubpur, Maharishi Nagar, Sector 104, Near Hajipur, Noida","locality":"Hajipur","city":"Noida","city_id":1,"latitude":"28.5386815077","longitude":"77.3657263443","zipcode":"201304","country_id":1,"locality_verbose":"Hajipur, Noida"},"cuisines":"North Indian, Mughlai, Chinese, Rolls","image_url":"https://b.zmtcdn.com/data/reviews_photos/05e/2c8bb21004c7320831f13abc894af05e_1577722321.jpg","phone_numbers":"+91 8882280631, +91 9354522263, +91 9354823876"},{"id":"18317477","name":"The Barbeque Company","location":{"address":"4, Hargovind Enclave, Opposite Shanti Mukund Hospital, Karkardooma, New Delhi","locality":"Karkardooma","city":"New Delhi","city_id":1,"latitude":"28.6461757659","longitude":"77.3010100052","zipcode":"110092","country_id":1,"locality_verbose":"Karkardooma, New Delhi"},"cuisines":"North Indian, Chinese, Continental, BBQ","image_url":"https://b.zmtcdn.com/data/pictures/7/18317477/67d399a804614787301524013939a056.jpg","phone_numbers":"+91 9205140094, +91 9205140091, +91 9205140092"},{"id":"313316","name":"Bikanervala","location":{"address":"Suncity Business Tower, Golf Course Road, Gurgaon","locality":"Suncity Business Tower, Golf Course Road","city":"Gurgaon","city_id":1,"latitude":"28.4335720618","longitude":"77.1054253355","zipcode":"","country_id":1,"locality_verbose":"Suncity Business Tower, Golf Course Road, Gurgaon"},"cuisines":"Mithai, North Indian, Chinese, Street Food, South Indian, Bakery","image_url":"https://b.zmtcdn.com/data/reviews_photos/870/27dbb9bcb0600bf785bb7639158d8870_1577696205.jpg","phone_numbers":"0124 4707777, 0124 4707778"},{"id":"18429191","name":"Singla's","location":{"address":"2/13, Mall Road, Near Tilak Nagar Metro Station, Tilak Nagar, New Delhi","locality":"Tilak Nagar","city":"New Delhi","city_id":1,"latitude":"28.6368389070","longitude":"77.0939119533","zipcode":"110018","country_id":1,"locality_verbose":"Tilak Nagar, New Delhi"},"cuisines":"North Indian, South Indian, Chinese, Fast Food, Beverages","image_url":"https://b.zmtcdn.com/data/pictures/chains/8/309848/40905d892bdc3b9edb9ae46dd2bc7761.jpg?output-format=webp","phone_numbers":"+91 7290063525"},{"id":"304033","name":"Big Wong","location":{"address":"Shop G 40/41, Baani Square, Sector 50, Gurgaon","locality":"Baani Square, Sector 50","city":"Gurgaon","city_id":1,"latitude":"28.4255308119","longitude":"77.0576059073","zipcode":"","country_id":1,"locality_verbose":"Baani Square, Sector 50, Gurgaon"},"cuisines":"Chinese, Sushi, Thai, Asian","image_url":"https://b.zmtcdn.com/data/pictures/9/19161799/9541e1e4008b38296cbc75d5c5bd87ed.jpg","phone_numbers":"+91 8010111666, 0124 4233331, 0124 4233332"},{"id":"307113","name":"Diggin","location":{"address":"Shop 1 & 2, Sri Fort Road, Opposite Gargi College, Anand Lok, New Delhi","locality":"Anand Lok","city":"New Delhi","city_id":1,"latitude":"28.5556449601","longitude":"77.2184361890","zipcode":"","country_id":1,"locality_verbose":"Anand Lok, New Delhi"},"cuisines":"Cafe, Continental, Italian, Sandwich, Burger, Salad, Pizza, Desserts","image_url":"https://b.zmtcdn.com/data/pictures/3/307113/54e0e60a17086184f1e5a44d7f580b54.png","phone_numbers":"011 40800082, 011 40800081, +91 9560304124"},{"id":"307566","name":"Bikanervala","location":{"address":"Ground Floor, Silver Tower, Near Metro Station, Sector 18, Noida","locality":"Sector 18","city":"Noida","city_id":1,"latitude":"28.5719923522","longitude":"77.3244055733","zipcode":"","country_id":1,"locality_verbose":"Sector 18, Noida"},"cuisines":"Mithai, North Indian, Chinese, Street Food, South Indian, Bakery","image_url":"https://b.zmtcdn.com/data/reviews_photos/1e9/86d47bc2f1563b8181202a6a8ec0c1e9_1584443999.jpeg?fit=around%7C640%3A640&crop=640%3A640%3B%2A%2C%2A","phone_numbers":"+91 8130396666, 0120 4811111"},{"id":"18377912","name":"Zaika-E-Dilli","location":{"address":"C-9/17, Yamuna Vihar, Shahdara, New Delhi","locality":"Shahdara","city":"New Delhi","city_id":1,"latitude":"28.7001805799","longitude":"77.2722161561","zipcode":"","country_id":1,"locality_verbose":"Shahdara, New Delhi"},"cuisines":"North Indian, Chinese, South Indian","image_url":"https://b.zmtcdn.com/data/pictures/2/18377912/d96d3d2bf0a7f313f59dceb7bbee800c.jpg?output-format=webp","phone_numbers":"+91 9557359999, +91 9711343600, +91 9911543600"},{"id":"18863320","name":"Unplugged Courtyard","location":{"address":"Opposite Plot 269, Phase 2, Udyog Vihar, Gurgaon","locality":"Udyog Vihar","city":"Gurgaon","city_id":1,"latitude":"28.5069287338","longitude":"77.0853758231","zipcode":"","country_id":1,"locality_verbose":"Udyog Vihar, Gurgaon"},"cuisines":"North Indian, Continental, Asian, Beverages, Chinese","image_url":"https://b.zmtcdn.com/data/pictures/0/18863320/8fce19e783edb05e0528ef7ef00e07e4.jpg","phone_numbers":"+91 9319892965, +91 9319892966, +91 9319892967"},{"id":"18518483","name":"Echoes Hudson Lane","location":{"address":"2522, 2nd & 3rd Floor, Hudson Lane, Kingsway Camp, Delhi University-GTB Nagar, New Delhi","locality":"Delhi University-GTB Nagar","city":"New Delhi","city_id":1,"latitude":"28.6950454242","longitude":"77.2042456269","zipcode":"","country_id":1,"locality_verbose":"Delhi University-GTB Nagar, New Delhi"},"cuisines":"Cafe, Chinese, North Indian, Beverages","image_url":"https://b.zmtcdn.com/data/pictures/1/18237321/3490eb537d65858a20d814a208d9d4f7.jpg?output-format=webp","phone_numbers":"+91 9899060655"},{"id":"18124353","name":"The Salt Cafe Kitchen & Bar","location":{"address":"19-20, A Block, LSC Market, Preet Vihar, New Delhi","locality":"Preet Vihar","city":"New Delhi","city_id":1,"latitude":"28.6345748193","longitude":"77.2905933112","zipcode":"","country_id":1,"locality_verbose":"Preet Vihar, New Delhi"},"cuisines":"North Indian, Chinese, Continental, Beverages","image_url":"https://b.zmtcdn.com/data/pictures/3/18124353/8979e36b74da512c48b87e454f2f6110.jpg","phone_numbers":"011 42828200, +91 9711828200"},{"id":"799","name":"Gulati","location":{"address":"6, Pandara Road Market, New Delhi","locality":"Pandara Road Market","city":"New Delhi","city_id":1,"latitude":"28.6079824068","longitude":"77.2300457954","zipcode":"110003","country_id":1,"locality_verbose":"Pandara Road Market, New Delhi"},"cuisines":"North Indian, Mughlai, Kebab","image_url":"https://b.zmtcdn.com/data/pictures/9/799/0343ee5a88478b2416a4105f7e41c388.jpg","phone_numbers":"011 23388836, 011 23388839, 011 23782949"},{"id":"18623406","name":"Bunta Bar Live","location":{"address":"76, Floor 2, Janpath, New Delhi","locality":"Janpath","city":"New Delhi","city_id":1,"latitude":"28.6283255192","longitude":"77.2197065502","zipcode":"","country_id":1,"locality_verbose":"Janpath, New Delhi"},"cuisines":"North Indian, Chinese, Momos, Fast Food","image_url":"https://b.zmtcdn.com/data/pictures/6/18623406/838256e634e6bd00b14e79b33afb0e04.jpg","phone_numbers":"+91 9354963554, +91 8700386356"},{"id":"18538208","name":"Rustique","location":{"address":"Essex Farms, 4 Aurobindo Marg, Adchini, New Delhi","locality":"Essex Farms, Adchini","city":"New Delhi","city_id":1,"latitude":"28.5438673163","longitude":"77.2013431415","zipcode":"110016","country_id":1,"locality_verbose":"Essex Farms, Adchini, New Delhi"},"cuisines":"Cafe, Bakery, Desserts","image_url":"https://b.zmtcdn.com/data/reviews_photos/168/9a37535e7037e8c5133821225bdd6168_1566373675.jpg","phone_numbers":"+91 9811331122"},{"id":"309955","name":"Nando's","location":{"address":"F-29/30 A, Malhotra Building, Inner Circle, Connaught Place, New Delhi","locality":"Connaught Place","city":"New Delhi","city_id":1,"latitude":"28.6309717177","longitude":"77.2196173668","zipcode":"","country_id":1,"locality_verbose":"Connaught Place, New Delhi"},"cuisines":"Portuguese, Wraps, Burger, Salad","image_url":"https://b.zmtcdn.com/data/pictures/chains/6/8776/f09f916036ad7537b0ba87abbc1cd511.jpg","phone_numbers":"+91 7042666029, +91 8448776045"},{"id":"309974","name":"Om Sweets & Snacks","location":{"address":"16-17, Ground Floor, Good Earth City Center, Sector 50, Gurgaon","locality":"Good Earth City Center, Sector 50","city":"Gurgaon","city_id":1,"latitude":"28.4216401408","longitude":"77.0531792566","zipcode":"","country_id":1,"locality_verbose":"Good Earth City Center, Sector 50, Gurgaon"},"cuisines":"Chinese, North Indian, Fast Food, South Indian, Mithai, Desserts","image_url":"https://b.zmtcdn.com/data/pictures/6/5056/b0a348b779e34e9e89fea7050b1c29d2.jpg","phone_numbers":"+91 8010070707, 0124 4018855"},{"id":"17977777","name":"The Barbeque Company","location":{"address":"HL 1-2, L Block, Jail Road, New Delhi","locality":"Jail Road","city":"New Delhi","city_id":1,"latitude":"28.6254567669","longitude":"77.1013228968","zipcode":"","country_id":1,"locality_verbose":"Jail Road, New Delhi"},"cuisines":"North Indian, Chinese, Mughlai, BBQ, Beverages","image_url":"https://b.zmtcdn.com/data/pictures/7/17977777/13500c7cc4a9d5c37eacc89870d87b34.png","phone_numbers":"011 71565190"},{"id":"310776","name":"Gastronomica Kitchen & Bar","location":{"address":"M-55, 2nd Floor, M Block Market, Greater Kailash 1 (GK 1), New Delhi","locality":"M Block Market, Greater Kailash 1 (GK1)","city":"New Delhi","city_id":1,"latitude":"28.5504196786","longitude":"77.2350648791","zipcode":"110048","country_id":1,"locality_verbose":"M Block Market, Greater Kailash 1 (GK1), New Delhi"},"cuisines":"European, Asian, North Indian, Italian, Continental","image_url":"https://b.zmtcdn.com/data/reviews_photos/b00/29df1a2c9d17938ddb60f2dd7991fb00_1575609129.jpg","phone_numbers":"+91 9971172933"},{"id":"2004","name":"Indian Accent","location":{"address":"The Lodhi, Lodhi Road, New Delhi","locality":"The Lodhi, Lodhi Road","city":"New Delhi","city_id":1,"latitude":"28.5920639406","longitude":"77.2376998141","zipcode":"0","country_id":1,"locality_verbose":"The Lodhi, Lodhi Road, New Delhi"},"cuisines":"Modern Indian","image_url":"https://b.zmtcdn.com/data/pictures/4/2004/3cd622ca37a9ec01e2d8ec9bf4a7bdc3.jpg","phone_numbers":"+91 9871117968, 011 66175151"},{"id":"18851593","name":"Mad Batter","location":{"address":"2nd Floor, The Shopping Mall, Arjun Marg, DLF Phase 1, Gurgaon","locality":"Shopping Mall, DLF Phase 1","city":"Gurgaon","city_id":1,"latitude":"28.4661229560","longitude":"77.0995841548","zipcode":"","country_id":1,"locality_verbose":"Shopping Mall, DLF Phase 1, Gurgaon"},"cuisines":"Cafe, Italian, Continental, Tex-Mex, American","image_url":"https://b.zmtcdn.com/data/pictures/chains/3/18851593/c82568da027af5c4c87ffbe79aeb2733.png","phone_numbers":"0124 40577777, +91 9999899911"},{"id":"900","name":"Saravana Bhavan","location":{"address":"P-13, Connaught Circus, Connaught Place, New Delhi","locality":"Connaught Place","city":"New Delhi","city_id":1,"latitude":"28.6322777239","longitude":"77.2165653482","zipcode":"0","country_id":1,"locality_verbose":"Connaught Place, New Delhi"},"cuisines":"South Indian, Mithai, Beverages","image_url":"https://b.zmtcdn.com/data/res_imagery/899_CHAIN_8b679bb604a1a4f128971906e6027c05.jpg","phone_numbers":"011 28844305, 011 23345577"},{"id":"18440147","name":"Lockup","location":{"address":"SCO 83, Sector 22, Gurgaon","locality":"Sector 22","city":"Gurgaon","city_id":1,"latitude":"28.5029485419","longitude":"77.0633904263","zipcode":"","country_id":1,"locality_verbose":"Sector 22, Gurgaon"},"cuisines":"North Indian, Chinese, Biryani, Continental, Italian, Beverages, Desserts","image_url":"https://b.zmtcdn.com/data/pictures/3/309913/8ade9c2f64b21cba3f728bb52060dc34.jpg","phone_numbers":"+91 8183979797"},{"id":"307065","name":"Music & Mountains - Hillside Cafe","location":{"address":"M-23, M Block Market, Greater Kailash (GK) 1, New Delhi","locality":"M Block Market, Greater Kailash 1 (GK1)","city":"New Delhi","city_id":1,"latitude":"28.5497829558","longitude":"77.2357843816","zipcode":"","country_id":1,"locality_verbose":"M Block Market, Greater Kailash 1 (GK1), New Delhi"},"cuisines":"Cafe, Italian, Continental, Fast Food, Salad","image_url":"https://b.zmtcdn.com/data/pictures/5/307065/241557703f722c885582346b06d78a04.jpg","phone_numbers":"+91 7827576707, +91 9811408127, +91 9873160659"},{"id":"18216901","name":"Unplugged Courtyard","location":{"address":"23/7, L Block, Middle Circle, Connaught Place, New Delhi","locality":"Connaught Place","city":"New Delhi","city_id":1,"latitude":"28.6342240491","longitude":"77.2215066478","zipcode":"110001","country_id":1,"locality_verbose":"Connaught Place, New Delhi"},"cuisines":"Finger Food, North Indian, Continental, Momos, Asian","image_url":"https://b.zmtcdn.com/data/pictures/1/18216901/e118f1bf9d6af576a4a3439044ce9f18.jpg","phone_numbers":"+91 9999396662, +91 9999396661"},{"id":"18729557","name":"Xero Degrees","location":{"address":"L-23/9, Middle Circle, Connaught Place, New Delhi","locality":"Connaught Place","city":"New Delhi","city_id":1,"latitude":"28.6343423459","longitude":"77.2213641554","zipcode":"","country_id":1,"locality_verbose":"Connaught Place, New Delhi"},"cuisines":"Cafe, Fast Food, Beverages","image_url":"https://b.zmtcdn.com/data/reviews_photos/ed6/8f1351d4dcc8904b8ed71f65f5991ed6_1576908726.jpg","phone_numbers":"+91 9711440836"},{"id":"18559789","name":"World Trail","location":{"address":"Shop 64-65, Plot 22, Sandal Street, Assotech Business Cresterra, Sector 135, Noida","locality":"Sector 135","city":"Noida","city_id":1,"latitude":"28.4963949964","longitude":"77.4020779878","zipcode":"","country_id":1,"locality_verbose":"Sector 135, Noida"},"cuisines":"Fast Food, Biryani, Beverages, Italian","image_url":"https://b.zmtcdn.com/data/pictures/6/18390096/fecab90e7dc3a739fd5752c3acc20932.jpg","phone_numbers":"+91 8169249943"},{"id":"7528","name":"Indian Grill Room","location":{"address":"315, 3rd Floor, Suncity Business Tower, Golf Course Road, Gurgaon","locality":"Suncity Business Tower, Golf Course Road","city":"Gurgaon","city_id":1,"latitude":"28.4334827277","longitude":"77.1054011956","zipcode":"122002","country_id":1,"locality_verbose":"Suncity Business Tower, Golf Course Road, Gurgaon"},"cuisines":"North Indian, Mughlai","image_url":"https://b.zmtcdn.com/data/pictures/chains/8/7528/177ca84d2fe7652f0991c2fd2db0f3a3.jpg","phone_numbers":"+91 9910498787, 0124 4477810, +91 8010011222"},{"id":"18544058","name":"Yum Yum Cha","location":{"address":"Shop 69, First floor, Middle Lane, Khan Market, New Delhi","locality":"Khan Market","city":"New Delhi","city_id":1,"latitude":"28.5997745878","longitude":"77.2264596820","zipcode":"","country_id":1,"locality_verbose":"Khan Market, New Delhi"},"cuisines":"Asian, Japanese, Sushi","image_url":"https://b.zmtcdn.com/data/res_imagery/308741_CHAIN_bee67e363e99ac549b34c85ffe5d8de7.jpg","phone_numbers":"011 41523030, 011 41525050, +91 9810002996"},{"id":"18885376","name":"TCK By The China Kitchen","location":{"address":"11, Cyber Hub, Near DLF Cyber City, Gurgaon","locality":"Cyber Hub, DLF Cyber City","city":"Gurgaon","city_id":1,"latitude":"28.4952953327","longitude":"77.0887983218","zipcode":"","country_id":1,"locality_verbose":"Cyber Hub, DLF Cyber City, Gurgaon"},"cuisines":"Chinese, Beverages","image_url":"https://b.zmtcdn.com/data/pictures/chains/8/3378/c3a3c1cbf812f6ceccf47a1e41a887fd.jpg","phone_numbers":"+91 7838957888"},{"id":"307784","name":"Tossin Pizza","location":{"address":"G-31, Baani Square, Sector 50, Gurgaon","locality":"Baani Square, Sector 50","city":"Gurgaon","city_id":1,"latitude":"28.4252955181","longitude":"77.0579512417","zipcode":"","country_id":1,"locality_verbose":"Baani Square, Sector 50, Gurgaon"},"cuisines":"Pizza, Fast Food, Italian, Desserts, Beverages","image_url":"https://b.zmtcdn.com/data/pictures/chains/2/305782/1fb6d690c153c3e53aad45402031023b.jpg","phone_numbers":"+91 7070708666, 0124 4047070"},{"id":"3990","name":"Kwality Dhaba","location":{"address":"WZ-38, Uggarsain Market, Ashok Nagar, Near Subhash Nagar, New Delhi","locality":"Subhash Nagar","city":"New Delhi","city_id":1,"latitude":"28.6372308652","longitude":"77.1012786403","zipcode":"0","country_id":1,"locality_verbose":"Subhash Nagar, New Delhi"},"cuisines":"North Indian, Chinese","image_url":"https://b.zmtcdn.com/data/res_imagery/3990_RESTAURANT_d307ba421a954a79dc6e1942baf03116.jpg","phone_numbers":"+91 9818993635, 011 25133056, 011 25133057"},{"id":"4751","name":"Chili's Grill & Bar","location":{"address":"3rd Floor, Ambience Mall, Nelson Madela Road, Vasant Kunj, New Delhi","locality":"Ambience Mall, Vasant Kunj","city":"New Delhi","city_id":1,"latitude":"28.5408749117","longitude":"77.1548959985","zipcode":"0","country_id":1,"locality_verbose":"Ambience Mall, Vasant Kunj, New Delhi"},"cuisines":"Italian, Finger Food","image_url":"https://b.zmtcdn.com/data/res_imagery/4751_CHAIN_a5bff706786fbed7313bd8b8b6271ea8.jpg","phone_numbers":"011 40870532, 011 40870533"},{"id":"19068354","name":"Ricos","location":{"address":"UA 24, Banglow Road, Jawahar Nagar, Near Gauri Nursing Home, Kamla Nagar, New Delhi","locality":"Kamla Nagar","city":"New Delhi","city_id":1,"latitude":"28.6787736606","longitude":"77.2079869732","zipcode":"","country_id":1,"locality_verbose":"Kamla Nagar, New Delhi"},"cuisines":"Cafe, Continental, American, Italian, Mexican","image_url":"https://b.zmtcdn.com/data/reviews_photos/b76/242eda3230771f8c88cd30cb164eab76_1572516780.jpg","phone_numbers":"+91 9871663340"},{"id":"18757935","name":"Phonebooth Reloaded","location":{"address":"G14b, Ground Floor, Vijay Nagar, Hudson Lane, Delhi University-GTB Nagar, New Delhi","locality":"Delhi University-GTB Nagar","city":"New Delhi","city_id":1,"latitude":"28.6944228125","longitude":"77.2042208165","zipcode":"","country_id":1,"locality_verbose":"Delhi University-GTB Nagar, New Delhi"},"cuisines":"North Indian, Italian, Mexican, Continental","image_url":"https://b.zmtcdn.com/data/pictures/5/18757935/ecb9d7c9058670597bd72bea9380f2bf.jpeg","phone_numbers":"011 49878345, 011 41444120"},{"id":"18204820","name":"Themis Barbecue House","location":{"address":"Shop 251, 2nd Floor, Near Stanmax Aggarwal Millennium Tower 1, Netaji Subhash Place, New Delhi","locality":"Netaji Subhash Place","city":"New Delhi","city_id":1,"latitude":"28.6939101917","longitude":"77.1492858231","zipcode":"110035","country_id":1,"locality_verbose":"Netaji Subhash Place, New Delhi"},"cuisines":"North Indian, BBQ, Mughlai, Desserts, Beverages","image_url":"https://b.zmtcdn.com/data/pictures/0/18204820/494ae2f3eb8614a2389b3dda0afc7ed9.jpg","phone_numbers":"+91 9821656569, +91 9821657571, +91 9821656562"},{"id":"18919107","name":"The Big Chill Cafe","location":{"address":"First Floor, B 40, The Colonnade, Opposite Gate 2 Rajiv Chowk Metro Station, Connaught Place, New Delhi","locality":"The Colonnade, Connaught Place","city":"New Delhi","city_id":1,"latitude":"28.6345239106","longitude":"77.2190363333","zipcode":"","country_id":1,"locality_verbose":"The Colonnade, Connaught Place, New Delhi"},"cuisines":"Cafe","image_url":"https://b.zmtcdn.com/data/reviews_photos/d21/624046414aaa5005c33b5dd05c525d21_1544194067.jpg","phone_numbers":"011 41757075"},{"id":"18533671","name":"Biryani Blues","location":{"address":"B 1/52, Main Market, B Block, Sector 50, Noida","locality":"Sector 50","city":"Noida","city_id":1,"latitude":"28.5703081125","longitude":"77.3621895164","zipcode":"","country_id":1,"locality_verbose":"Sector 50, Noida"},"cuisines":"Biryani, Hyderabadi, Fast Food","image_url":"https://b.zmtcdn.com/data/pictures/chains/8/301718/c754be5e4d4ed74f5f07da1c3fe6ce77.jpg","phone_numbers":"+91 8010801000"},{"id":"8429","name":"Chocolateria San Churro","location":{"address":"1, M Block Market, Greater Kailash 2, New Delhi","locality":"M Block Market, Greater Kailash 2 (GK2)","city":"New Delhi","city_id":1,"latitude":"28.5345160643","longitude":"77.2438095510","zipcode":"0","country_id":1,"locality_verbose":"M Block Market, Greater Kailash 2 (GK2), New Delhi"},"cuisines":"Cafe, Bakery, Desserts","image_url":"https://b.zmtcdn.com/data/pictures/9/8429/ef30f7d01f46aeb1b3b7720e6d2e9301.jpg","phone_numbers":"00 46597619"},{"id":"18376472","name":"Biryani Blues","location":{"address":"Building 2, Ground Floor, Corner Market, Maharishi Dayanand Marg, Malviya Nagar, New Delhi","locality":"Malviya Nagar","city":"New Delhi","city_id":1,"latitude":"28.5391392192","longitude":"77.2133024409","zipcode":"","country_id":1,"locality_verbose":"Malviya Nagar, New Delhi"},"cuisines":"Biryani, Hyderabadi, Fast Food","image_url":"https://b.zmtcdn.com/data/pictures/chains/8/301718/c754be5e4d4ed74f5f07da1c3fe6ce77.jpg?output-format=webp","phone_numbers":"+91 8010801000, 011 2865555"},{"id":"301718","name":"Biryani Blues","location":{"address":"B 202, 203, Supermart 1, DLF Phase 4, Gurgaon","locality":"Supermart 1, DLF Phase 4","city":"Gurgaon","city_id":1,"latitude":"28.4622246405","longitude":"77.0872879028","zipcode":"","country_id":1,"locality_verbose":"Supermart 1, DLF Phase 4, Gurgaon"},"cuisines":"Biryani, Hyderabadi, Fast Food","image_url":"https://b.zmtcdn.com/data/pictures/chains/8/301718/c754be5e4d4ed74f5f07da1c3fe6ce77.jpg?output-format=webp","phone_numbers":"+91 9871032020, 0124 4227308"},{"id":"18276583","name":"Eva's Pizza","location":{"address":"Laxmi Singh Estate, Pawanbaug Road, Off S.V. Road, Near Witty International School, Malad West, Mumbai","locality":"Malad West","city":"Mumbai","city_id":3,"latitude":"19.1762455682","longitude":"72.8470584378","zipcode":"","country_id":1,"locality_verbose":"Malad West, Mumbai"},"cuisines":"Pizza, Fast Food","image_url":"https://b.zmtcdn.com/data/pictures/3/39773/2fbdebdc45de5e80da96a6affa8fb8a7.jpg","phone_numbers":"+91 7208085444, +91 7208075445"},{"id":"18264821","name":"Pizza Caprina","location":{"address":"4, Premier Emperor Building, Off Military Road, Near Indian Bank, Marol, Mumbai","locality":"Marol","city":"Mumbai","city_id":3,"latitude":"19.1152197156","longitude":"72.8873230889","zipcode":"","country_id":1,"locality_verbose":"Marol, Mumbai"},"cuisines":"Pizza, Fast Food, Italian, North Indian, Sandwich","image_url":"https://b.zmtcdn.com/data/pictures/5/45855/94ac030a63a6330a9cc48082f54153be.jpg","phone_numbers":"00 918655563588, 00 918655063544"},{"id":"36348","name":"Jain Subkuchh Food Plaza","location":{"address":"Subkuchh Complex,, Near Inorbit Mall, Mindspace, Link Road, Malad West, Mumbai","locality":"Malad West","city":"Mumbai","city_id":3,"latitude":"19.1747382000","longitude":"72.8367376328","zipcode":"400064","country_id":1,"locality_verbose":"Malad West, Mumbai"},"cuisines":"North Indian, Street Food, South Indian, Chinese, Fast Food, Mithai, Beverages","image_url":"https://b.zmtcdn.com/data/pictures/8/36348/9576cca816220b2857be50b87af0eca6.jpg?output-format=webp","phone_numbers":"022 28771320, 022 28755555, 022 28764151"},{"id":"18562484","name":"Farmer's Cafe","location":{"address":"Shop 1, Plot 470, Celeste Building, Kinchin CHS, 14th Road, Khar, Mumbai","locality":"Khar","city":"Mumbai","city_id":3,"latitude":"19.0654204915","longitude":"72.8306460008","zipcode":"400052","country_id":1,"locality_verbose":"Khar, Mumbai"},"cuisines":"Cafe, Italian, Fast Food","image_url":"https://b.zmtcdn.com/data/reviews_photos/296/3cb66ba4e12e62a2b9f1b1c1f8a84296_1549183660.jpg","phone_numbers":"+91 7506015930"},{"id":"18589921","name":"Zaika Crave - Club Aquaria","location":{"address":"LIC Colony Road, Near Shanti Ashram, Borivali West, Mumbai","locality":"Borivali West","city":"Mumbai","city_id":3,"latitude":"19.2395672577","longitude":"72.8471358866","zipcode":"400103","country_id":1,"locality_verbose":"Borivali West, Mumbai"},"cuisines":"North Indian, Mughlai, Continental, Salad, Asian","image_url":"https://b.zmtcdn.com/data/pictures/1/18589921/9b2a10edff7bcdd7b7ddd77c2df6b040.jpg","phone_numbers":"+91 9369362727, +91 9369364141"},{"id":"18673802","name":"The Social Townhouse","location":{"address":"Plot 14, Sector 26A, Palm Beach Road, Vashi, Navi Mumbai","locality":"Vashi","city":"Navi Mumbai","city_id":3,"latitude":"19.0904510000","longitude":"73.0109280000","zipcode":"","country_id":1,"locality_verbose":"Vashi, Navi Mumbai"},"cuisines":"Continental, Chinese, Pizza, Mexican, Thai","image_url":"https://b.zmtcdn.com/data/pictures/2/18673802/031d83c08b1d0691e9043ee28338b93f.jpg","phone_numbers":"022 50646064"},{"id":"18715857","name":"Garage Inc. Public House","location":{"address":"15, Walton Road, Colaba, Behind Bata Showroom, Causeway, Colaba, Mumbai","locality":"Colaba","city":"Mumbai","city_id":3,"latitude":"18.9199990000","longitude":"72.8307510000","zipcode":"400005","country_id":1,"locality_verbose":"Colaba, Mumbai"},"cuisines":"Continental, Asian, North Indian","image_url":"https://b.zmtcdn.com/data/pictures/chains/7/18715857/5dceb9931b3b0f3a0be80d316da94308.jpg","phone_numbers":"+91 9372575843, +91 9899196679"},{"id":"18372191","name":"Family Tree","location":{"address":"Shop 4, Ravi Industries, Panch Pakhadi, Thane West, Thane","locality":"Panch Pakhadi, Thane West","city":"Thane","city_id":3,"latitude":"19.1935888099","longitude":"72.9666085169","zipcode":"400602","country_id":1,"locality_verbose":"Panch Pakhadi, Thane West, Thane"},"cuisines":"Italian, Mexican, North Indian, Chinese, Beverages","image_url":"https://b.zmtcdn.com/data/res_imagery/18372191_RESTAURANT_36c9e19a16bd163ef7645bd0894a55c6.jpg","phone_numbers":"00 225304499"},{"id":"34269","name":"Persian Darbar","location":{"address":"5, Alexandra Terrace, Dr BA Road, Near Gloria Church, Rani Baug, Byculla East, Byculla, Mumbai","locality":"Byculla","city":"Mumbai","city_id":3,"latitude":"18.9759920766","longitude":"72.8336876258","zipcode":"400027","country_id":1,"locality_verbose":"Byculla, Mumbai"},"cuisines":"Mughlai, North Indian, Chinese, Biryani","image_url":"https://b.zmtcdn.com/data/pictures/9/34269/1ff9133c3ad431038a6f7fc533b3b9c2.jpg","phone_numbers":"022 23791112, 022 23791113, 022 23791114"},{"id":"32795","name":"Lucky Restaurant","location":{"address":"Junction Of SV Road & Hill Road, Hill Road, Bandra West, Mumbai","locality":"Hill Road, Bandra West","city":"Mumbai","city_id":3,"latitude":"19.0539498097","longitude":"72.8377779946","zipcode":"400050","country_id":1,"locality_verbose":"Hill Road, Bandra West, Mumbai"},"cuisines":"Mughlai, North Indian, Chinese, Fast Food, Desserts","image_url":"https://b.zmtcdn.com/data/res_imagery/32795_RESTAURANT_61884cc3a5d2c7341f6b93d08325e095_c.jpg?output-format=webp","phone_numbers":"022 26442973, 022 26516019"},{"id":"45855","name":"Pizza Caprina","location":{"address":"Shop 13, Punit Park, Plot 182/c, Near Ayappa Temple, Sector 17, Nerul, Navi Mumbai","locality":"Nerul","city":"Navi Mumbai","city_id":3,"latitude":"19.0354578965","longitude":"73.0245264620","zipcode":"400706","country_id":1,"locality_verbose":"Nerul, Navi Mumbai"},"cuisines":"Pizza, Fast Food, Italian, North Indian, Sandwich","image_url":"https://b.zmtcdn.com/data/pictures/5/45855/94ac030a63a6330a9cc48082f54153be.jpg","phone_numbers":"+91 8655560082, +91 8655560083, +91 9320517552"},{"id":"19080545","name":"Rule 34","location":{"address":"148, Charkop, Industrial Estate, Kandivali West, Mumbai","locality":"Kandivali West","city":"Mumbai","city_id":3,"latitude":"19.2100782359","longitude":"72.8230922297","zipcode":"","country_id":1,"locality_verbose":"Kandivali West, Mumbai"},"cuisines":"North Indian, Chinese, Continental, Modern Indian","image_url":"https://b.zmtcdn.com/data/pictures/5/19080545/fce2d6b2d022156bf4e5a57e0fc61ba9.jpg","phone_numbers":"+91 9324967630, +91 9324967629"},{"id":"46595","name":"Masala Library","location":{"address":"Ground Floor, First International Financial Centre, Bandra Kurla Complex, Mumbai","locality":"First International Financial Centre, Bandra Kurla Complex","city":"Mumbai","city_id":3,"latitude":"19.0689743183","longitude":"72.8696426377","zipcode":"","country_id":1,"locality_verbose":"First International Financial Centre, Bandra Kurla Complex, Mumbai"},"cuisines":"Modern Indian","image_url":"https://b.zmtcdn.com/data/res_imagery/46595_RESTAURANT_43e0f1d0735521e14ce54ad4526fd9b2.jpg","phone_numbers":"+91 8454900900, 022 42687700"},{"id":"19208373","name":"By The Bae - Kitchen And Bar","location":{"address":"9A - 9B, Aram Nagar 2, JP Road, Versova, Andheri West, Mumbai","locality":"Versova, Andheri West","city":"Mumbai","city_id":3,"latitude":"19.1329409293","longitude":"72.8122232482","zipcode":"","country_id":1,"locality_verbose":"Versova, Andheri West, Mumbai"},"cuisines":"Modern Indian, North Indian, Italian","image_url":"https://b.zmtcdn.com/data/pictures/3/19208373/45b7a98da119b3537eb47b82bb11c148.jpg","phone_numbers":"022 50646219"},{"id":"18210397","name":"Doolally Taproom","location":{"address":"C18-21, Dalia Industrial Estate, Near Fun Republic, Veera Desai Area, Mumbai","locality":"Veera Desai Area","city":"Mumbai","city_id":3,"latitude":"19.1363187773","longitude":"72.8334676847","zipcode":"400053","country_id":1,"locality_verbose":"Veera Desai Area, Mumbai"},"cuisines":"Finger Food, American, Italian","image_url":"https://b.zmtcdn.com/data/res_imagery/17754523_CHAIN_328428b4a8607c0e0948651c714818b6.jpg","phone_numbers":"022 48931314"},{"id":"39624","name":"Dakshinayan","location":{"address":"Hotel Anand, Gandhigram Road, Near Hare Krishna Temple, Juhu, Mumbai","locality":"Juhu","city":"Mumbai","city_id":3,"latitude":"19.1129036502","longitude":"72.8256192058","zipcode":"0","country_id":1,"locality_verbose":"Juhu, Mumbai"},"cuisines":"South Indian","image_url":"https://b.zmtcdn.com/data/pictures/chains/3/36143/378ab4fec8d57ec65fa3427d0eb39288.jpg","phone_numbers":"022 26208812, 022 26210502"},{"id":"35709","name":"Sai Veg World","location":{"address":"Ground Floor, Sahyagiri CHS, Near Railway Station, Goregaon East, Mumbai","locality":"Goregaon East","city":"Mumbai","city_id":3,"latitude":"19.1650600000","longitude":"72.8504220000","zipcode":"0","country_id":1,"locality_verbose":"Goregaon East, Mumbai"},"cuisines":"North Indian, Street Food, Fast Food, Chinese, South Indian, Desserts, Beverages","image_url":"https://b.zmtcdn.com/data/pictures/9/35709/5569810d35f8b8accbaa734a26208490.jpg?output-format=webp","phone_numbers":"022 40351500, +91 9987058279"},{"id":"32597","name":"Banjara Dhaba","location":{"address":"Opposite Phillips Tower Building, Off Holy Cross Road, IC Colony, Borivali West, Mumbai","locality":"Borivali West","city":"Mumbai","city_id":3,"latitude":"19.2530286544","longitude":"72.8492890298","zipcode":"400103","country_id":1,"locality_verbose":"Borivali West, Mumbai"},"cuisines":"North Indian, Mughlai, Biryani, Maharashtrian, Chinese","image_url":"https://b.zmtcdn.com/data/pictures/7/32597/8bb1e3ecc000f97075971d776d57083f.jpg?output-format=webp","phone_numbers":"+91 9892431655"},{"id":"18717475","name":"Sbarro","location":{"address":"Inside BPCL Petrol Pump, New Bombay Petrol Supply, Opposite Amarsons Stores, Linking Road, Bandra West, Mumbai","locality":"Linking Road, Bandra West","city":"Mumbai","city_id":3,"latitude":"19.0616314547","longitude":"72.8359306231","zipcode":"","country_id":1,"locality_verbose":"Linking Road, Bandra West, Mumbai"},"cuisines":"Pizza, Italian, Fast Food","image_url":"https://b.zmtcdn.com/data/pictures/chains/4/43984/35c36740eecacfee32fbdaf91fb3f586.jpg","phone_numbers":"022 26401265, 022 26418989, +91 8850695376"},{"id":"19016795","name":"Xotik Cafe","location":{"address":"4, Ashoka Palace, Rajendra Nagar, Malad East, Mumbai","locality":"Malad East","city":"Mumbai","city_id":3,"latitude":"19.1817337286","longitude":"72.8534518182","zipcode":"","country_id":1,"locality_verbose":"Malad East, Mumbai"},"cuisines":"Cafe, Continental, Italian, Desserts","image_url":"https://b.zmtcdn.com/data/pictures/5/19016795/13ecde56343304cc0456f4488feddb8a.jpg?output-format=webp","phone_numbers":"+91 8828369966, +91 8850040385"},{"id":"18415760","name":"145 Bandra","location":{"address":"1st Floor, HSBC Building, Off Turner Road, Pali Hill, Bandra West, Mumbai","locality":"Pali Hill, Bandra West","city":"Mumbai","city_id":3,"latitude":"19.0604244079","longitude":"72.8295700997","zipcode":"","country_id":1,"locality_verbose":"Pali Hill, Bandra West, Mumbai"},"cuisines":"Mexican, American, Desserts, European, Modern Indian","image_url":"https://b.zmtcdn.com/data/pictures/0/18415760/354af0ad347298086437eab3067ce9d5.jpg?output-format=webp","phone_numbers":"022 62339595, 022 62339596"},{"id":"18382976","name":"Garde Manger Cafe","location":{"address":"Parmar CHS, Paranjape B Scheme, 1st Road, Near Mahila Sangh School, Vile Parle East, Mumbai","locality":"Vile Parle East","city":"Mumbai","city_id":3,"latitude":"19.1047805333","longitude":"72.8521717340","zipcode":"400057","country_id":1,"locality_verbose":"Vile Parle East, Mumbai"},"cuisines":"Cafe, Healthy Food, Italian, Juices","image_url":"https://b.zmtcdn.com/data/res_imagery/18382976_RESTAURANT_43fa1a4eb031b65ae44ee59a2092de1e.jpg","phone_numbers":"+91 7045004488, +91 8291816108, +91 8291816109"},{"id":"18291423","name":"Bastian","location":{"address":"B/1, New Kamal Building, Opposite National College, Linking Road, Bandra West, Mumbai","locality":"Linking Road, Bandra West","city":"Mumbai","city_id":3,"latitude":"19.0636503627","longitude":"72.8349975497","zipcode":"","country_id":1,"locality_verbose":"Linking Road, Bandra West, Mumbai"},"cuisines":"Seafood","image_url":"https://b.zmtcdn.com/data/pictures/chains/3/18291423/25552c0195c6d6813ea0ae6f188547c7.jpg","phone_numbers":"+91 7045083714, +91 8419965953"},{"id":"18529589","name":"Veggies","location":{"address":"Shop 1, Cosmos 27, GBR, Kasarvadavli, Thane West, Thane","locality":"Kasarvadavli, Thane West","city":"Thane","city_id":3,"latitude":"19.2699849537","longitude":"72.9648010433","zipcode":"","country_id":1,"locality_verbose":"Kasarvadavli, Thane West, Thane"},"cuisines":"South Indian, North Indian, Chinese, Fast Food","image_url":"https://b.zmtcdn.com/data/pictures/9/18529589/d67f35f251084df2e34ebcf6e8a0d67d.jpg","phone_numbers":"+91 8307830744, +91 8307830755"},{"id":"19130119","name":"Masala Mastee","location":{"address":"Shop G1, Ground Floor, Satra Park, Shimpoli Road, Kastur Park, Borivali West, Mumbai","locality":"Borivali West","city":"Mumbai","city_id":3,"latitude":"19.2241163276","longitude":"72.8479063511","zipcode":"","country_id":1,"locality_verbose":"Borivali West, Mumbai"},"cuisines":"Continental, Italian, North Indian, Beverages","image_url":"https://b.zmtcdn.com/data/pictures/9/19130119/47a1e5b1dfe215120a629c092a16a8be.jpg","phone_numbers":"022 28999207, 022 28999208, 022 28999209"},{"id":"18591776","name":"The Union Bar & Eating House","location":{"address":"Plot 10, Nirman Vyapar Kendra, Sector 17, Vashi, Navi Mumbai","locality":"Vashi","city":"Navi Mumbai","city_id":3,"latitude":"19.0671497238","longitude":"72.9980373010","zipcode":"400703","country_id":1,"locality_verbose":"Vashi, Navi Mumbai"},"cuisines":"North Indian, American, European, Asian","image_url":"https://b.zmtcdn.com/data/pictures/6/18591776/82016b309fffb49fd4c6b5e4a3e55ca3.jpg","phone_numbers":"022 27801288, 022 27894873"},{"id":"17803673","name":"90 Ft Above","location":{"address":"The Rooftop, 7th Floor, Vini Elegance, L.T Road, Above Tanishq Showroom, Borivali West, Mumbai","locality":"Borivali West","city":"Mumbai","city_id":3,"latitude":"19.2285727696","longitude":"72.8527705371","zipcode":"","country_id":1,"locality_verbose":"Borivali West, Mumbai"},"cuisines":"North Indian, Italian, Asian","image_url":"https://b.zmtcdn.com/data/res_imagery/17803673_RESTAURANT_199edf2244bf08a959f1c774a22298d2.jpg","phone_numbers":"+91 8655059090, 022 28991900"},{"id":"18704834","name":"Gughan Supreme South Indian","location":{"address":"91, Ground Floor, Shalimar Building, Near Registrar Of Companies, G Road, Marine Lines, Mumbai","locality":"Marine Lines","city":"Mumbai","city_id":3,"latitude":"18.9434872303","longitude":"72.8250093386","zipcode":"400002","country_id":1,"locality_verbose":"Marine Lines, Mumbai"},"cuisines":"South Indian, Beverages","image_url":"https://b.zmtcdn.com/data/pictures/chains/4/18704834/f2fb2daf2160a52bd669c3b4fd996c05.jpg","phone_numbers":"022 22880036, 022 22880037, 022 22880035"},{"id":"19079975","name":"Yeti - The Himalayan Kitchen","location":{"address":"4, 5th Floor, Rohan Plaza, 5th Road, Near Union Bank, Khar, Mumbai","locality":"Khar","city":"Mumbai","city_id":3,"latitude":"19.0684688969","longitude":"72.8402295336","zipcode":"400052","country_id":1,"locality_verbose":"Khar, Mumbai"},"cuisines":"Assamese, Tibetan, North Eastern, Nepalese, Momos","image_url":"https://b.zmtcdn.com/data/pictures/5/19079975/77e5d4b7023b093672a1d8e4f9c840e2.jpg","phone_numbers":"+91 9833164392"},{"id":"48323","name":"Persian Darbar","location":{"address":"Shop 101 & 102, Noori Baug, Andheri Kurla Road, Marol Naka, Marol, Mumbai","locality":"Marol","city":"Mumbai","city_id":3,"latitude":"19.1096891092","longitude":"72.8758351877","zipcode":"","country_id":1,"locality_verbose":"Marol, Mumbai"},"cuisines":"Biryani, North Indian, Chinese","image_url":"https://b.zmtcdn.com/data/res_imagery/32835_CHAIN_9bdb17490b1e911e9dd4f1630700c7d7.jpg","phone_numbers":"022 29250033, 022 29250055, 022 29250140"},{"id":"18286405","name":"Sindhful","location":{"address":"Haji Mansion, 5th Road, Khar West, Khar, Mumbai","locality":"Khar","city":"Mumbai","city_id":3,"latitude":"19.0685145274","longitude":"72.8401879594","zipcode":"","country_id":1,"locality_verbose":"Khar, Mumbai"},"cuisines":"Sindhi, North Indian, Chinese","image_url":"https://b.zmtcdn.com/data/pictures/5/18286405/8efd95f430be1902fc3a3b7f02ffc26c.jpg","phone_numbers":"+91 9769394968"},{"id":"18604420","name":"Pot Pourri","location":{"address":"2nd Floor, Cubic Mall, Vasant Vihar Road, Chembur, Mumbai","locality":"Cubic Mall, Chembur","city":"Mumbai","city_id":3,"latitude":"19.0456203370","longitude":"72.9030834138","zipcode":"400071","country_id":1,"locality_verbose":"Cubic Mall, Chembur, Mumbai"},"cuisines":"Italian, Continental, Mexican, North Indian","image_url":"https://b.zmtcdn.com/data/pictures/0/18604420/7aaf0965cc8e19371ca94b0f9f2e602a.jpeg","phone_numbers":"+91 9699509699, +91 8879005467"},{"id":"18494129","name":"BKC  DIVE","location":{"address":"Ground Floor, Pinnacle Corporate Park, Opposite MTNL Office, Bandra Kurla Complex, Mumbai","locality":"Bandra Kurla Complex","city":"Mumbai","city_id":3,"latitude":"19.0722111972","longitude":"72.8703423589","zipcode":"400051","country_id":1,"locality_verbose":"Bandra Kurla Complex, Mumbai"},"cuisines":"North Indian, Chinese, Fast Food, Continental","image_url":"https://b.zmtcdn.com/data/res_imagery/18494129_RESTAURANT_4d3b855d4012320f5671ba6d1a0af47b.jpg","phone_numbers":"+91 8655077330"},{"id":"18947161","name":"Sandy's Den","location":{"address":"Shop 10/11, Vasant Vihar Complex, Next To Cubic Mall, Chembur, Mumbai","locality":"Chembur","city":"Mumbai","city_id":3,"latitude":"19.0455376201","longitude":"72.9037707299","zipcode":"","country_id":1,"locality_verbose":"Chembur, Mumbai"},"cuisines":"Fast Food, Bar Food, North Indian","image_url":"https://b.zmtcdn.com/data/pictures/chains/1/18947161/f654f48b4d721d5e15f1bc03ee0be369.jpg","phone_numbers":"+91 7304608592, 00 2225200068, +91 9820113445"},{"id":"18549688","name":"Spice Republic","location":{"address":"Shop 2 & 5, Ajanata Estate Market Lane, Borivali West, Mumbai","locality":"Borivali West","city":"Mumbai","city_id":3,"latitude":"19.2298551971","longitude":"72.8537357971","zipcode":"400092","country_id":1,"locality_verbose":"Borivali West, Mumbai"},"cuisines":"Cafe, Italian, Chinese, North Indian","image_url":"https://b.zmtcdn.com/data/pictures/8/18549688/cb131d55aa236cd274ce774764a2b403.jpg","phone_numbers":"022 28940044, 022 28940077, +91 7039225858"},{"id":"18446540","name":"Gymkhana 91 Bar & Kitchen","location":{"address":"Floor 1, Raghuvanshi Mills Compound, Senapati Bapat Marg, Lower Parel, Mumbai","locality":"Lower Parel","city":"Mumbai","city_id":3,"latitude":"18.9927742479","longitude":"72.8245329112","zipcode":"400013","country_id":1,"locality_verbose":"Lower Parel, Mumbai"},"cuisines":"Modern Indian, Asian, Continental","image_url":"https://b.zmtcdn.com/data/pictures/0/18446540/b40f3772218102b64247f80d1e25a377.jpg","phone_numbers":"022 50645796"},{"id":"18168398","name":"Aquafire Restaurant","location":{"address":"005-010, E Square Building, Subhash Road, Near Garware House, Vile Parle East, Mumbai","locality":"Vile Parle East","city":"Mumbai","city_id":3,"latitude":"19.1072795089","longitude":"72.8517808020","zipcode":"","country_id":1,"locality_verbose":"Vile Parle East, Mumbai"},"cuisines":"North Indian, Continental, Chinese, Italian, Desserts","image_url":"https://b.zmtcdn.com/data/pictures/8/18168398/413b56ae65b8a55d235091d9c0fa28ec.jpg?output-format=webp","phone_numbers":"022 26194159, +91 9619736663"},{"id":"37755","name":"Tewari Bros. Mithaiwala","location":{"address":"Juhu Supreme Shopping Centre, JVPD, Juhu, Mumbai","locality":"Juhu","city":"Mumbai","city_id":3,"latitude":"19.1155697678","longitude":"72.8344932944","zipcode":"0","country_id":1,"locality_verbose":"Juhu, Mumbai"},"cuisines":"Mithai, Street Food, Fast Food, North Indian","image_url":"https://b.zmtcdn.com/data/pictures/5/37755/49f32e06ac1ed088d23e97c57d8d28b8.jpg","phone_numbers":"022 26253412, 022 26245305, +91 7021723535"},{"id":"32835","name":"Persian Darbar","location":{"address":"Moray Mahal, Linking Road, Bandra West","locality":"Linking Road, Bandra West","city":"Mumbai","city_id":3,"latitude":"19.0604659211","longitude":"72.8364717588","zipcode":"0","country_id":1,"locality_verbose":"Linking Road, Bandra West, Mumbai"},"cuisines":"Biryani, North Indian, Chinese","image_url":"https://b.zmtcdn.com/data/pictures/5/32835/d82e81512a3a23bba9a8263e64c4edb6.jpg","phone_numbers":"022 26431741, 022 66941326, 022 26401326"},{"id":"18683432","name":"Khow Chow","location":{"address":"Shop 2, New Kamal CHS, Waterfield Road, Linking Road, Bandra West, Mumbai","locality":"Linking Road, Bandra West","city":"Mumbai","city_id":3,"latitude":"19.0635530779","longitude":"72.8347504511","zipcode":"","country_id":1,"locality_verbose":"Linking Road, Bandra West, Mumbai"},"cuisines":"Asian, Chinese, Thai, Beverages","image_url":"https://b.zmtcdn.com/data/pictures/2/18683432/15522f752e216ff722e14f5aa19bd4e9.jpg","phone_numbers":"+91 9987763093, 022 26414444"}]